{
	"meta":{
		"updated":"",
		"author":"Michael Large",
		"author_url":"http://codethebeard.com/"
	},
	"data":[
		{
			"title":"400 West Market",
			"tags":["Day", "Exterior", "Birds", "People", "Traffic"],
			"street_address":"400 West Market",
			"city":"Louisville",
			"state":"KY",
			"zip":"40202",
			"lat":"38.254258",
			"lng":"-85.757270",
			"soundcloud_embed":"<iframe width='100%' height='166' scrolling='no' frameborder='no' src='https://w.soundcloud.com/player/?url=https%3A//api.soundcloud.com/tracks/251391168&amp;color=f22435&amp;auto_play=true&amp;hide_related=false&amp;show_comments=true&amp;show_user=true&amp;show_reposts=false'></iframe>"
		},
		{
			"title":"3rd and Liberty",
			"tags":["Day", "Exterior", "Construction", "Traffic", "Water"],
			"street_address":"409 South 3rd Street",
			"city":"Louisville",
			"state":"KY",
			"zip":"40202",
			"lat":"38.252340",
			"lng":"-85.755687",
			"soundcloud_embed":"<iframe width='100%' height='166' scrolling='no' frameborder='no' src='https://w.soundcloud.com/player/?url=https%3A//api.soundcloud.com/tracks/251814904&amp;color=f22435&amp;auto_play=true&amp;hide_related=false&amp;show_comments=true&amp;show_user=true&amp;show_reposts=false'></iframe>"
		},
		{
			"title":"10408 Watterson Trail in Rain",
			"tags":["Night", "Exterior", "Traffic", "Rain"],
			"street_address":"10408 Watterson Trail",
			"city":"Louisville",
			"state":"KY",
			"zip":"40299",
			"lat":"38.193106",
			"lng":"-85.566052",
			"soundcloud_embed":"<iframe width='100%' height='166' scrolling='no' frameborder='no' src='https://w.soundcloud.com/player/?url=https%3A//api.soundcloud.com/tracks/251982721&amp;color=f22435&amp;auto_play=true&amp;hide_related=false&amp;show_comments=true&amp;show_user=true&amp;show_reposts=false'></iframe>"
		},
		{
			"title":"Louisville Riverwalk under Galt House",
			"tags":["Day", "Exterior", "Traffic"],
			"street_address": "Louisville Riverwalk",
			"city":"Louisville",
			"state":"KY",
			"zip":"40202",
			"lat":"38.259042",
			"lng":"-85.755955",
			"soundcloud_embed":"<iframe width='100%' height='166' scrolling='no' frameborder='no' src='https://w.soundcloud.com/player/?url=https%3A//api.soundcloud.com/tracks/252040911&amp;color=f22435&amp;auto_play=true&amp;hide_related=false&amp;show_comments=true&amp;show_user=true&amp;show_reposts=false'></iframe>"
		},
		{
			"title":"700 East Market Nightlife",
			"tags":["Night", "Exterior", "Chatter","People"],
			"street_address": "700 East Market Nightlife",
			"city":"Louisville",
			"state":"KY",
			"zip":"40202",
			"lat":"38.253217",
			"lng":"-85.739692",
			"soundcloud_embed":"<iframe width='100%' height='166' scrolling='no' frameborder='no' src='https://w.soundcloud.com/player/?url=https%3A//api.soundcloud.com/tracks/252180541&amp;color=f22435&amp;auto_play=true&amp;hide_related=false&amp;show_comments=true&amp;show_user=true&amp;show_reposts=false'></iframe>"
		},
		{
			"title":"Bells at Twelve on South 5th Street",
			"tags":["Day", "Exterior", "Bells", "Church"],
			"street_address": "433 S 5th St",
			"city":"Louisville",
			"state":"KY",
			"zip":"40202",
			"lat":"38.252110",
			"lng":"-85.758897",
			"soundcloud_embed":"<iframe width='100%' height='166' scrolling='no' frameborder='no' src='https://w.soundcloud.com/player/?url=https%3A//api.soundcloud.com/tracks/252184207&amp;color=f22435&amp;auto_play=true&amp;hide_related=false&amp;show_comments=true&amp;show_user=true&amp;show_reposts=false'></iframe>"
		}
	]
}
